name,address,street,street_number,postal_code,city,phone,website,rating,latitude,longitude,type
Delikatesy MDS,"11 listopada 10A, Radom 26-610",11 listopada,10A,26-610,Radom,483646932,,3.6,51.4142,21.1564,grocery_or_supermarket
Sklep HAPPI,"11 listopada 16, Radom 26-609",11 listopada,16,26-609,Radom,,,5,51.414,21.1579,grocery_or_supermarket
Sklep spożywczy,"11 listopada 16, Radom 26-609",11 listopada,16,26-609,Radom,,,0,51.4141,21.1577,grocery_or_supermarket
"Sklep spożywczy ""Piotruś""","11 listopada 45326, Radom 26-600",11 listopada,2/4,26-600,Radom,889481480,,3.6,51.4137,21.1549,grocery_or_supermarket
Małe Delikatesy,"Stanisława Zbrowskiego 112, Radom 26-600",Stanisława Zbrowskiego,112,26-600,Radom,,,4.7,51.4157,21.1777,grocery_or_supermarket
MediLeaf Natural,"1905 Roku 21/111, Radom 26-600",1905 Roku,21/111,26-600,Radom,730330381,,5,51.3897,21.1398,grocery_or_supermarket
Dietetyk Medycyny Naturalnej Radosław Tarkowski / dietetyk kliniczny Radom,"1905 Roku 21/111, Radom 26-600",1905 Roku,21/111,26-600,Radom,730330381,,5,51.3903,21.1394,grocery_or_supermarket
Stacja Paliw ORLEN,"1905 Roku 24, Radom 26-612",1905 Roku,24,26-612,Radom,242564241,,4.5,51.3915,21.1422,grocery_or_supermarket
Logis Przedsiębiorstwo Handlowo Usługowe,"1905 Roku 3, Radom 26-600",1905 Roku,3,26-600,Radom,,,4.5,51.3909,21.1436,grocery_or_supermarket
Gajmas. Sklep firmowy mięsno - spożywczy,"1905 Roku 60, Radom 26-616",1905 Roku,60,26-616,Radom,483315838,,1,51.3902,21.1328,grocery_or_supermarket
Her-Mir. PPHU. Sklep firmowy,"25 czerwca 26/32, Radom 26-610",25 czerwca,26/32,26-610,Radom,483622228,,1,51.3963,21.1609,grocery_or_supermarket
Enoteka Verona,"25 czerwca 36, Radom 26-600",25 czerwca,36,26-600,Radom,730693431,,4.7,51.3969,21.1613,grocery_or_supermarket
Jarosz Marianna. Handel detaliczny,"25 czerwca 59, Radom 26-610",25 czerwca,59,26-610,Radom,483316844,,5,51.4022,21.1632,grocery_or_supermarket
Her-Mir. PPHU. Sklep spożywczo - monopolowy. Hernik M.,"25 czerwca 85, Radom 26-610",25 czerwca,85,26-610,Radom,483446286,,3.6,51.4066,21.1657,grocery_or_supermarket
Katarzynka Art. Spożywcze Monopolowe," , Radom 26-604",,,26-604,Radom,,,5,51.3932,21.1737,grocery_or_supermarket
Fajny Sklep," , Radom 26-610",,,26-610,Radom,,,4.5,51.4056,21.1318,grocery_or_supermarket
Delikatesy," , Radom 26-610",,,26-610,Radom,,,4.9,51.396,21.1349,grocery_or_supermarket
Groszek," , Radom 26-613",,,26-613,Radom,733774134,,4.9,51.4174,21.2079,grocery_or_supermarket
Sklep ABC „Ola”," , Radom 26-616",,,26-616,Radom,,,5,51.389,21.1274,grocery_or_supermarket
Sklep Spożywczy Monopolowy," , Radom 26-617",,,26-617,Radom,,,0,51.4437,21.1453,grocery_or_supermarket
Wiejski Specjał,"Aleja Józefa Grzecznarowskiego 29/31, Radom 26-610",Aleja Józefa Grzecznarowskiego,29/31,26-610,Radom,791227373,,5,51.3815,21.1759,grocery_or_supermarket
Stacja Paliw ORLEN,"Aleja Józefa Grzecznarowskiego 46, Radom 26-600",Aleja Józefa Grzecznarowskiego,46,26-600,Radom,242561409,,4.2,51.3803,21.1753,grocery_or_supermarket
Stacja Paliw ORLEN,"Aleja Wojska Polskiego 120, Radom 26-600",Aleja Wojska Polskiego,120,26-600,Radom,242564291,,4.2,51.4135,21.2047,grocery_or_supermarket
Stacja Paliw ORLEN,"Andrzeja Struga 102, Radom 26-600",Andrzeja Struga,102,26-600,Radom,242560015,,4.2,51.4103,21.183,grocery_or_supermarket
Spozywcze,"Błędowska 10, Radom 26-617",Błędowska,10,26-617,Radom,,,3.5,51.4444,21.1371,grocery_or_supermarket
Żywność Ekologiczna - Sklep u Jacka,"Bolesława Chrobrego 30b, Radom 26-605",Bolesława Chrobrego,30b,26-605,Radom,608737381,,4,51.4116,21.1603,grocery_or_supermarket
Witaminka,"Bolesława Limanowskiego 44, Radom 26-600",Bolesława Limanowskiego,44,26-600,Radom,483600726,,4.7,51.3975,21.1371,grocery_or_supermarket
Sklep Spożywczo Przemysłowy Helena,"Borowa 2, Radom 26-604",Borowa,2,26-604,Radom,,,0,51.3718,21.1772,grocery_or_supermarket
Sklep Spożywczy Brzyk Radosław,"Brylantowa 4, Sadków 26-613",Brylantowa,4,26-613,Sadków,,,0,51.4013,21.2048,grocery_or_supermarket
Makbud. PHU. Czerwiec M.,"Cicha 2, Radom 26-610",Cicha,2,26-610,Radom,483644234,,0,51.3929,21.1474,grocery_or_supermarket
Włodarska Maria. Sklep spożywczy,"Cisowa 7, Radom 26-611",Cisowa,7,26-611,Radom,483662534,,5,51.3786,21.1573,grocery_or_supermarket
Piekarnia Cukiernia Gajda,"Czarnoleska 20, Radom 26-600",Czarnoleska,20,26-600,Radom,483318393,,4.4,51.3707,21.1365,grocery_or_supermarket
Sklep Miesny Tradycja,"Czarnoleska 21, Radom 26-616",Czarnoleska,21,26-616,Radom,,,4.6,51.3721,21.1317,grocery_or_supermarket
Mini-Max. Delikatesy. Minda J.,"Czarnoleska 23, Radom 26-616",Czarnoleska,23,26-616,Radom,483319903,,1,51.3717,21.1331,grocery_or_supermarket
"Grand s.c. PPHU. Białas Z., Kołaczek A.","Czereśniowa 6, Radom 26-612",Czereśniowa,6,26-612,Radom,483343761,,4,51.3842,21.1012,grocery_or_supermarket
Delikatesy U Pawła,"Folwarczna 32, Radom 26-601",Folwarczna,32,26-601,Radom,483310023,,4.6,51.4124,21.1385,grocery_or_supermarket
Wera. Sklep spożywczo - monopolowy. Stawski S.,"Gabriela Narutowicza 27, Radom 97-500",Gabriela Narutowicza,27,97-500,Radom,446832634,,5,51.3986,21.1417,grocery_or_supermarket
Lewiatan,"GAGARINA 6, Radom 26-600",GAGARINA,6,26-600,Radom,,,4.3,51.3853,21.1542,grocery_or_supermarket
Bakwit. Sklep spożywczy,"Generała Józefa Bema 11, Halinów 05-074",Generała Józefa Bema,11,05-074,Halinów,227838369,,0,51.4085,21.1639,grocery_or_supermarket
Lorent Marek. Sklep rolno - spożywczy,"Generała Józefa Bema 7, Halinów 05-074",Generała Józefa Bema,7,05-074,Halinów,227838753,,3,51.4076,21.1635,grocery_or_supermarket
Olszewicz Jacek. Sklep spożywczy,"Generała Leopolda Okulickiego 58/70, Radom 26-600",Generała Leopolda Okulickiego,58/70,26-600,Radom,483608339,,3,51.4063,21.1288,grocery_or_supermarket
Sklep Spożywczy,"Generała Władysława Andersa 2, Radom 26-600",Generała Władysława Andersa,2,26-600,Radom,,,0,51.4113,21.1817,grocery_or_supermarket
Cukiernia Ambrozja Katarzyna Cieślak,"Gębarzewska 36G, Radom 26-639",Gębarzewska,36G,26-639,Radom,500163423,,4.4,51.372,21.1335,grocery_or_supermarket
Zaścianek,"Gębarzewska 38, Radom 26-616",Gębarzewska,38,26-616,Radom,,,4.7,51.3717,21.135,grocery_or_supermarket
Stokrotka,"Główna 11, Radom 26-610",Główna,11,26-610,Radom,818889200,,4.3,51.4047,21.1293,grocery_or_supermarket
Delikatesy,"Idalińska 40c, Radom 26-604",Idalińska,40c,26-604,Radom,,,4.5,51.3722,21.1768,grocery_or_supermarket
Przyłucki Jacek. Sklep spożywczy,"Ignacego Daszyńskiego 4, Radom 26-605",Ignacego Daszyńskiego,4,26-605,Radom,508526131,,4.1,51.4198,21.1656,grocery_or_supermarket
Art. Spożywcze Warzywa - Owoce,"Ignacego Daszyńskiego 4, Radom 26-605",Ignacego Daszyńskiego,4,26-605,Radom,,,0,51.4198,21.1656,grocery_or_supermarket
Sklep Spożywczy ABC,"Ignacego Paderewskiego 14, Radom 26-615",Ignacego Paderewskiego,14,26-615,Radom,,,4,51.4173,21.1729,grocery_or_supermarket
Sklep Spożywczo - Monopolowy Ewa,"Jacka Malczewskiego 21, Radom 26-600",Jacka Malczewskiego,21,26-600,Radom,,,5,51.4067,21.1515,grocery_or_supermarket
Hit Sklep spożywczy Dionizy Bartel,"Jacka Malczewskiego 27, Radom 26-610",Jacka Malczewskiego,27,26-610,Radom,483631517,,0,51.4072,21.1517,grocery_or_supermarket
Fajny Sklep,"Jacka Malczewskiego 8, Radom 26-610",Jacka Malczewskiego,8,26-610,Radom,,,2.3,51.4033,21.1487,grocery_or_supermarket
Delicja,"Jana III Sobieskiego 45579, Radom 26-617",Jana III Sobieskiego,10/14,26-617,Radom,572677275,,0,51.4493,21.1487,grocery_or_supermarket
Happy Pack - Na rogu,"Jana Kantego Trzebińskiego 37B, Radom 26-617",Jana Kantego Trzebińskiego,37B,26-617,Radom,483332598,,4.7,51.4439,21.1373,grocery_or_supermarket
Robmłyn. Lipiec R.,"Janiszewska 13, Radom 26-617",Janiszewska,13,26-617,Radom,796499866,,4.9,51.4332,21.1457,grocery_or_supermarket
warzywniak owocowy zakątek,"Janusza Kusocińskiego 16, Radom 26-600",Janusza Kusocińskiego,16,26-600,Radom,508461282,,4.5,51.4099,21.1607,grocery_or_supermarket
"Sklep 'Art. Spożywcze, Warzywa i Owoce'","Janusza Kusocińskiego 16, Radom 26-609",Janusza Kusocińskiego,16,26-609,Radom,483644660,,0,51.4099,21.1607,grocery_or_supermarket
Używki Świata,"Janusza Kusocińskiego 21, Radom 26-600",Janusza Kusocińskiego,21,26-600,Radom,483070068,,4,51.4099,21.1638,grocery_or_supermarket
Grudzień Rafał. Sklep mięsno - spożywczy,"Janusza Kusocińskiego 21, Radom 26-610",Janusza Kusocińskiego,21,26-610,Radom,483640374,,4.9,51.4099,21.1638,grocery_or_supermarket
Hartwig Magdalena. Sklep warzywniczo - rybny,"Janusza Kusocińskiego 21, Radom 26-610",Janusza Kusocińskiego,21,26-610,Radom,483644660,,4.3,51.4099,21.1638,grocery_or_supermarket
Sklep spożywczy,"Janusza Kusocińskiego 32, Radom 26-610",Janusza Kusocińskiego,32,26-610,Radom,,,0,51.4094,21.1669,grocery_or_supermarket
Technobud. Orzechowski M.,"Jasna 37, Radom 26-604",Jasna,37,26-604,Radom,483651855,,5,51.3915,21.1767,grocery_or_supermarket
Sklep ABC,"Józefa Franciszka Królikowskiego 1, Radom 26-613",Józefa Franciszka Królikowskiego,1,26-613,Radom,483442676,,4.4,51.4229,21.2174,grocery_or_supermarket
Opałka Waldemar. Sklep spożywczo - przemysłowy,"Józefowska 55, Radom 26-617",Józefowska,55,26-617,Radom,483330713,,4.2,51.4412,21.163,grocery_or_supermarket
Sklepik spożywczy,"Juliana Aleksandrowicza 5, Radom 26-617",Juliana Aleksandrowicza,5,26-617,Radom,,,0,51.4379,21.1584,grocery_or_supermarket
Stacja Paliw ORLEN,"Juliusza Słowackiego 132, Radom 26-600",Juliusza Słowackiego,132,26-600,Radom,242561165,,4.3,51.3853,21.1765,grocery_or_supermarket
Sklep Ho-Ho,"Juliusza Słowackiego 19, Radom 26-610",Juliusza Słowackiego,19,26-610,Radom,,,1,51.3979,21.1617,grocery_or_supermarket
Sklep Spożywczy ABC,"Juliusza Słowackiego 234, Radom 26-604",Juliusza Słowackiego,234,26-604,Radom,483651154,,4.6,51.3747,21.1874,grocery_or_supermarket
Kiosk Ruchu,"Juliusza Słowackiego 97A, Radom 26-604",Juliusza Słowackiego,97A,26-604,Radom,504899781,,0,51.3896,21.1723,grocery_or_supermarket
Lewiatan,"Katowicka 17A, Radom 26-600",Katowicka,17A,26-600,Radom,483447005,,4.4,51.4041,21.1757,grocery_or_supermarket
Stacja Paliw ORLEN,"Kielecka 22/24A, Radom 26-600",Kielecka,22/24A,26-600,Radom,242560120,,4.2,51.4047,21.1189,grocery_or_supermarket
Stokrotka,"Kielecka 90/B, Radom 26-610",Kielecka,90/B,26-610,Radom,818889200,,4.2,51.3955,21.106,grocery_or_supermarket
PPHU Celpunkt Michał Żyła,"Klwatecka 10, Radom 26-600",Klwatecka,10,26-600,Radom,501014635,,4.5,51.442,21.1438,grocery_or_supermarket
Bakaro. Pawlikowski R.,"Komandosów 4, Radom 26-611",Komandosów,4,26-611,Radom,,,3,51.3853,21.1547,grocery_or_supermarket
Sklep Rybny,"Królowej Jadwigi 7, Radom 26-617",Królowej Jadwigi,7,26-617,Radom,,,4.3,51.4291,21.1597,grocery_or_supermarket
Mleczny Raj. Bąblewska E.,"Królowej Jadwigi 9, Radom 26-600",Królowej Jadwigi,9,26-600,Radom,483330042,,0,51.4295,21.1591,grocery_or_supermarket
Delikatesy Alfa,"Królowej Jadwigi 9B, Radom 26-600",Królowej Jadwigi,9B,26-600,Radom,501582628,,4.4,51.4295,21.159,grocery_or_supermarket
Amic Market,"Księcia Józefa Poniatowskiego 1, Radom 26-600",Księcia Józefa Poniatowskiego,1,26-600,Radom,,,3.3,51.3913,21.1543,grocery_or_supermarket
Ananas s.c. Zuba D.S.,"Księdza Andrzeja Łukasika 3, Radom 26-612",Księdza Andrzeja Łukasika,3,26-612,Radom,483626452,,0,51.3879,21.1309,grocery_or_supermarket
Masta. FPH. Malczewska M.,"Londyńska 31, Radom 26-612",Londyńska,31,26-612,Radom,483308727,,4.7,51.381,21.0985,grocery_or_supermarket
Smak-Wit. Molga A.,"Lotnicza 69, Radom 26-603",Lotnicza,69,26-603,Radom,,,5,51.3892,21.1952,grocery_or_supermarket
Kubiak Marianna. Sklep spożywczo - przemysłowy,"Lubelska 121, Radom 26-603",Lubelska,121,26-603,Radom,483814030,,4.5,51.3971,21.1959,grocery_or_supermarket
Hurtownia Chemiczna Hermes,"Lubelska 136, Radom 26-600",Lubelska,136,26-600,Radom,,,0,51.3969,21.1937,grocery_or_supermarket
Baltona Starter Duty Free Shop,"Lubelska 158, Radom 26-603",Lubelska,158,26-603,Radom,882148799,,5,51.3929,21.1995,grocery_or_supermarket
Sklep spożywczo- monopolowy Teresa Kwietniewska,"Lubelska 48, Radom 26-603",Lubelska,48,26-603,Radom,483655251,,4.3,51.3982,21.1805,grocery_or_supermarket
"Sklep Spożywczo-Przemysłowy ""Biały Domek""","Lubelska 69, Radom 26-603",Lubelska,69,26-603,Radom,729880669,,4.2,51.3981,21.1864,grocery_or_supermarket
Serafin Krzysztof. Mała gastronomia. Art. spożywcze,"Łomżyńska 16, Radom 26-604",Łomżyńska,16,26-604,Radom,790375385,,5,51.3728,21.1788,grocery_or_supermarket
Dębski Paweł. Sklep spożywczy,"Malenicka 83, Radom 26-604",Malenicka,83,26-604,Radom,483654917,,4.5,51.3751,21.1993,grocery_or_supermarket
Olejarnia - Olejove,"Malinowa 3, Radom 26-600",Malinowa,3,26-600,Radom,602658545,,0,51.4043,21.1306,grocery_or_supermarket
megares sklep,"Maratońska 16A, Radom 26-600",Maratońska,16A,26-600,Radom,483628505,,0,51.3964,21.1173,grocery_or_supermarket
Sklep spożywczo - warzywniczy,"Maratońska 3, Radom 26-612",Maratońska,3,26-612,Radom,600894083,,5,51.3905,21.1272,grocery_or_supermarket
Borki s.c. Delikatesy. Bąblewska E.,"Maratońska 3, Radom 26-612",Maratońska,3,26-612,Radom,483313512,,4,51.3905,21.1272,grocery_or_supermarket
Stacja Paliw ORLEN,"Maratońska 57, Radom 26-600",Maratońska,57,26-600,Radom,242561413,,4.2,51.3954,21.1131,grocery_or_supermarket
Warzywa Owoce Artykuły spożywcze,"Mieczysława Niedziałkowskiego 11, Radom 26-610",Mieczysława Niedziałkowskiego,11,26-610,Radom,,,5,51.4028,21.1594,grocery_or_supermarket
Sklep spożywczy,"Mikołaja Reja 45640, Radom 26-610",Mikołaja Reja,12/14,26-610,Radom,,,3.8,51.404,21.1443,grocery_or_supermarket
Gałek Barbara. Sklep spożywczo - przemysłowy,"Mleczna 20, Radom 26-617",Mleczna,20,26-617,Radom,483857761,,4.5,51.4409,21.1718,grocery_or_supermarket
Sklep Livio,"Młodzianowska 150, Radom 26-606",Młodzianowska,150,26-606,Radom,885972930,,4.2,51.3777,21.1537,grocery_or_supermarket
Lewiatan,"Młodzianowska 9, Radom 26-600",Młodzianowska,9,26-600,Radom,412463500,,3.8,51.3962,21.1404,grocery_or_supermarket
Miód Pasieka Rodzinna,"Natolin 103, Radom 26-613",Natolin,103,26-613,Radom,537382772,,5,51.4052,21.2062,grocery_or_supermarket
Mularski Edward. Sklep spożywczo - przemysłowy,"Nizinna 54, Radom 26-612",Nizinna,54,26-612,Radom,483311238,,4.7,51.3926,21.1089,grocery_or_supermarket
Sklep spożywczy Biały Domek,"Nowogrodzka 12, Radom 26-610",Nowogrodzka,12,26-610,Radom,,,4,51.3974,21.1646,grocery_or_supermarket
Artykuly Spożywcze,"Nowogrodzka 5, Radom 26-604",Nowogrodzka,5,26-604,Radom,,,0,51.3976,21.1643,grocery_or_supermarket
Na Rogu Sklep Warzywno - Spożywczy Agnieszka Pyzara,"Odrodzenia 77, Radom 26-600",Odrodzenia,77,26-600,Radom,,,5,51.3905,21.1815,grocery_or_supermarket
Her-Mir. PPHU. Sklep firmowy,"Olsztyńska 39, Radom 26-600",Olsztyńska,39,26-600,Radom,483443725,,0,51.41,21.1818,grocery_or_supermarket
Nasz Produkt. PPHU. ZPChr. Kapusta R.,"Olsztyńska 39, Radom 26-615",Olsztyńska,39,26-615,Radom,483858728,,0,51.4099,21.1818,grocery_or_supermarket
Sklep Monopolowy,"Osiedlowa 28A, Radom 26-611",Osiedlowa,28A,26-611,Radom,,,5,51.3792,21.1653,grocery_or_supermarket
"Sklep Spożywczy ""TANIOCH""","Osiedlowa 28C, Radom 26-611",Osiedlowa,28C,26-611,Radom,,,0,51.3789,21.1652,grocery_or_supermarket
"Sklep mięsny ""JANHAS""","Osiedlowa 2C, Radom 26-611",Osiedlowa,2C,26-611,Radom,,,4.2,51.3806,21.1596,grocery_or_supermarket
Art. Spożywcze I Przemysłowe U Sławka,"Owocowa 18, Radom 26-604",Owocowa,18,26-604,Radom,,,5,51.3848,21.1738,grocery_or_supermarket
Rutkowska Irena. Sklep spożywczo - przemysłowy,"Owocowa 18, Radom 26-604",Owocowa,18,26-604,Radom,483652378,,4.4,51.3849,21.1737,grocery_or_supermarket
Sklep Spożywczy ABC,"Peryferyjna 7, Radom 26-612",Peryferyjna,7,26-612,Radom,,,4.5,51.392,21.1036,grocery_or_supermarket
Czyż Beata. Sklep spożywczo - przemysłowy,"Podmiejska 32, Radom 26-604",Podmiejska,32,26-604,Radom,483653971,,4.3,51.3873,21.1834,grocery_or_supermarket
ZakupySpożywcze.radom - zakupy z dostawą do Twojego domu,"Podwalna 10 lok. 1, Radom 26-610",Podwalna,10 lok. 1,26-610,Radom,518562979,,5,51.4004,21.1432,grocery_or_supermarket
Skierczyńska Dorota. Sklep spożywczo - przemysłowy,"Południowa 16, Radom 26-606",Południowa,16,26-606,Radom,483666094,,4.5,51.3783,21.1496,grocery_or_supermarket
Delikatesy Gajda,"Posłów Greckich 1, Radom 26-616",Posłów Greckich,1,26-616,Radom,,,4.6,51.3706,21.1365,grocery_or_supermarket
Sklep spożywczo przemysłowy SHOT,"Przytycka 82, Wacyn 26-601",Przytycka,82,26-601,Wacyn,483313971,,4.3,51.4095,21.1054,grocery_or_supermarket
Niter. ZPHU,"Puszczańska 37, Radom 26-617",Puszczańska,37,26-617,Radom,483606832,,0,51.4359,21.1448,grocery_or_supermarket
Podkowińska Zofia. Firma handlowo - usługowa,"Rapackiego 21, Radom 26-605",Rapackiego,21,26-605,Radom,483847431,,0,51.4217,21.174,grocery_or_supermarket
Sklep Darko,"Romualda Traugutta 7, Radom 26-600",Romualda Traugutta,7,26-600,Radom,,,5,51.3932,21.1545,grocery_or_supermarket
Dark Artykuly Spożywcze,"Romualda Traugutta 9, Radom 26-610",Romualda Traugutta,9,26-610,Radom,,,0,51.3933,21.1545,grocery_or_supermarket
Sklep spożywczo-przemysłowy Grażyna Wit,"Sadków 46A,  26-630",Sadków,46A,26-630,,,,4.2,51.3953,21.2152,grocery_or_supermarket
Sklep Spożywczy ABC,"Sadków , Radom 26-600",Sadków,,26-600,Radom,,,4.1,51.396,21.2029,grocery_or_supermarket
Sklep Spożywczy ABC,"Sandomierska 13, Radom 26-600",Sandomierska,13,26-600,Radom,533300037,,3.3,51.3813,21.1552,grocery_or_supermarket
Lewiatan,"Sandomierska 18, Radom 26-611",Sandomierska,18,26-611,Radom,,,4.3,51.3816,21.1551,grocery_or_supermarket
Sklep spożywczo - przemysłowy,"Skaryszewska 1A, Radom 26-604",Skaryszewska,1A,26-604,Radom,483817956,,0,51.3794,21.1835,grocery_or_supermarket
Grocery store,"Skaryszewska 58, Radom 26-604",Skaryszewska,58,26-604,Radom,073-945 12 63,,0,51.3817,21.196,grocery_or_supermarket
Domi. Tomczyk J.,"Sportowa 35, Radom 26-600",Sportowa,35,26-600,Radom,514077327,,0,51.4122,21.1694,grocery_or_supermarket
Sklep Mięsny u Kasi,"Stanisława Moniuszki 12, Radom 26-600",Stanisława Moniuszki,12,26-600,Radom,,,4.2,51.3987,21.1546,grocery_or_supermarket
Bacówka Towary Tradycyjne,"Stanisława Wernera 10a, Radom 26-600",Stanisława Wernera,10a,26-600,Radom,667808055,,5,51.4085,21.1466,grocery_or_supermarket
Nasz Produkt. PPHU. ZPChr. Kapusta R.,"Stanisława Zbrowskiego 7, Radom 26-610",Stanisława Zbrowskiego,7,26-610,Radom,483858300,,0,51.4001,21.1694,grocery_or_supermarket
Stacja Paliw ORLEN,"Stanisława Żółkiewskiego 12, Radom 26-600",Stanisława Żółkiewskiego,12,26-600,Radom,242560118,,4.1,51.4248,21.1615,grocery_or_supermarket
Centrum Handlu Detalicznego Sp. z o.o.,"Stanisława Żółkiewskiego 129, Radom 26-600",Stanisława Żółkiewskiego,129,26-600,Radom,483810277,,3,51.4171,21.1986,grocery_or_supermarket
Dolina Rumianku - sklep zielarski Radom,"Stańczyka 4, Radom 26-610",Stańczyka,4,26-610,Radom,787899566,,4.9,51.4033,21.1496,grocery_or_supermarket
Tymiński Andrzej. Art. spożywcze i wyroby tytoniowe,"Staroopatowska 20, Radom 26-611",Staroopatowska,20,26-611,Radom,606334947,,3.8,51.3875,21.159,grocery_or_supermarket
Rubin. FH. Kupidura M.,"Stefana Żeromskiego 20, Radom 26-610",Stefana Żeromskiego,20,26-610,Radom,483400207,,0,51.4016,21.1499,grocery_or_supermarket
Samopomoc Chłopska. Handlowo - usługowa spółdzielnia pracy,"Stefana Żeromskiego 31, Radom 26-610",Stefana Żeromskiego,31,26-610,Radom,483623555,,0,51.4014,21.1531,grocery_or_supermarket
Kubuś. Sklep spożywczy,"Stefana Żeromskiego 77, Radom 26-610",Stefana Żeromskiego,77,26-610,Radom,483623641,,0,51.4001,21.164,grocery_or_supermarket
EcoBioFresh,"Stefana Żeromskiego 87/5A, Radom 26-600",Stefana Żeromskiego,87/5A,26-600,Radom,,,4.3,51.4001,21.1654,grocery_or_supermarket
"Sklep ""SMAKOSZ""","Stefana Żeromskiego 92, Radom 26-610",Stefana Żeromskiego,92,26-610,Radom,,,1,51.3996,21.1667,grocery_or_supermarket
Delikatesy Słoneczko,"Sucha 2, Radom 26-600",Sucha,2,26-600,Radom,,,0,51.3862,21.1237,grocery_or_supermarket
Justyna,"Sucha 2, Radom 26-612",Sucha,2,26-612,Radom,,,5,51.3862,21.1237,grocery_or_supermarket
Masarnia Smaczek,"Sycyńska 27, Radom 26-600",Sycyńska,27,26-600,Radom,530266685,,5,51.3655,21.1351,grocery_or_supermarket
Store,"Szeroka 6, Radom 26-601",Szeroka,6,26-601,Radom,,,4,51.4047,21.121,grocery_or_supermarket
Best Market,"Szewska 28, Radom 26-610",Szewska,28,26-610,Radom,518458950,,4.3,51.4026,21.1465,grocery_or_supermarket
Masta. FPH. Malczewska M.,"Szpitalna 3A, Radom 26-610",Szpitalna,3A,26-610,Radom,483627549,,4.3,51.4036,21.1413,grocery_or_supermarket
Sklep ABC,"Świętokrzyska 9A, Radom 26-606",Świętokrzyska,9A,26-606,Radom,800886555,,3.9,51.3774,21.1506,grocery_or_supermarket
Michalec Edward. Sklep spożywczy,"Tadeusza Kotarbińskiego 2, Radom 26-615",Tadeusza Kotarbińskiego,2,26-615,Radom,483441762,,0,51.4113,21.179,grocery_or_supermarket
Sklep Spożywczy ABC,"Tadeusza Mazowieckiego 13A, Radom 26-610",Tadeusza Mazowieckiego,13A,26-610,Radom,483635546,,4.1,51.3897,21.1573,grocery_or_supermarket
Kolibabska Danuta. Sklep spożywczo - przemysłowy,"Topiel 71A, Radom 26-601",Topiel,71A,26-601,Radom,483317677,,5,51.4051,21.1085,grocery_or_supermarket
Kobyliński Wiesław. Sklep spożywczy,"Tytusa Chałubińskiego 45640, Radom 26-610",Tytusa Chałubińskiego,12/14,26-610,Radom,483626064,,4.8,51.394,21.1447,grocery_or_supermarket
Delikatesy Premium,"Tytusa Chałubińskiego 18, Radom 26-610",Tytusa Chałubińskiego,18,26-610,Radom,,,5,51.3945,21.1458,grocery_or_supermarket
Sklep Gratka,"Wacyn 97,  26-601",Wacyn,97,26-601,,,,5,51.4098,21.1037,grocery_or_supermarket
Kobyliński Wiesław. Przedsiębiorstwo handlowo - usługowe,"Wałowa 3, Radom 26-610",Wałowa,3,26-610,Radom,483600810,,0,51.4016,21.1461,grocery_or_supermarket
Kacuś sklep alkoholowy,"Wałowa 7, Radom 26-600",Wałowa,7,26-600,Radom,,,4,51.4014,21.1448,grocery_or_supermarket
Odido,"Warszawska 140, Radom 26-617",Warszawska,140,26-617,Radom,,,4,51.4355,21.1479,grocery_or_supermarket
Stacja Paliw ORLEN,"Warszawska 17, Radom 26-600",Warszawska,17,26-600,Radom,242561219,,4.3,51.4171,21.1529,grocery_or_supermarket
Bator Jan i Danuta. Sklep spożywczo - przemysłowy,"Warszawska 70, Radom 26-600",Warszawska,70,26-600,Radom,483451525,,5,51.4244,21.1515,grocery_or_supermarket
MLECZARNIA JARMAS,"Wernera 10 box 64, Radom 26-600",Wernera,10 box 64,26-600,Radom,503116681,,4,51.4093,21.1456,grocery_or_supermarket
Stacja Paliw ORLEN,"Wierzbicka 49, Radom 26-600",Wierzbicka,49,26-600,Radom,668086020,,4.4,51.3816,21.13,grocery_or_supermarket
Gama. PH,"Wierzbicka 54/56, Radom 26-600",Wierzbicka,54/56,26-600,Radom,,,1,51.3803,21.1288,grocery_or_supermarket
Sklep spożywczy Janosik Alkohole,"Wiktora Cymerysa-Kwiatkowskiego 40, Radom 26-600",Wiktora Cymerysa-Kwiatkowskiego,40,26-600,Radom,,,5,51.3895,21.166,grocery_or_supermarket
Art. Spożywcze Monopolowe,"Witkacego 22, Radom 26-606",Witkacego,22,26-606,Radom,,,5,51.3677,21.1654,grocery_or_supermarket
Sklep Spożywczy ABC,"Wjazdowa 28, Radom 26-616",Wjazdowa,28,26-616,Radom,603501063,,4.4,51.3786,21.1335,grocery_or_supermarket
Owocowy Zakątek,"Władysława Beliny-Prażmowskiego 13, Radom 26-610",Władysława Beliny-Prażmowskiego,13,26-610,Radom,,,5,51.393,21.1562,grocery_or_supermarket
Warzywniak u Radka,"Władysława Beliny-Prażmowskiego 13, Radom 26-610",Władysława Beliny-Prażmowskiego,13,26-610,Radom,,,0,51.3928,21.1565,grocery_or_supermarket
Ósemka,"Wolanowska 49, Radom 26-601",Wolanowska,49,26-601,Radom,,,5,51.4027,21.1042,grocery_or_supermarket
Minutka,"Wolanowska 83C, Radom 26-600",Wolanowska,83C,26-600,Radom,,,3.3,51.4027,21.0984,grocery_or_supermarket
Warzywniak,"Wośnicka 28, Radom 26-616",Wośnicka,28,26-616,Radom,,,5,51.3828,21.1068,grocery_or_supermarket
Rapis. Firma handlowo - gastronomiczna. Iwanicki T.,"Wośnicka 34, Radom 26-612",Wośnicka,34,26-612,Radom,605145591,,3.5,51.3824,21.1053,grocery_or_supermarket
Groszek,"Wyścigowa 32, Radom 26-600",Wyścigowa,32,26-600,Radom,,,4.4,51.3756,21.1683,grocery_or_supermarket
",,Nasz sklep,, sklep ogólnospożywczy i monopolowy - mięso, wędliny, warzywa","Wyścigowa 8A, Radom 26-600",Wyścigowa,8A,26-600,Radom,,,4.5,51.3778,21.1575,grocery_or_supermarket
Piekarnia Wacyn,"Żwirki I Wigury 31, Radom 26-600",Żwirki I Wigury,31,26-600,Radom,,,4.7,51.4144,21.1657,grocery_or_supermarket
Sklep Marcin,"Żyzna , Radom 26-601",Żyzna,,26-601,Radom,,,4.7,51.413,21.1237,grocery_or_supermarket
Wyższe Seminarium Duchowne w Radomiu,"Młyńska 23/25, Radom 26-616",Młyńska,23/25,26-616,Radom,483309100,,4.9,51.3753,21.1079,school
"Bogatek, Plac manewrowy","Norberta Barlickiego 8, Radom 26-600",Norberta Barlickiego,8,26-600,Radom,602507110,,5,51.4475,21.1463,school
Publiczna Szkoła Podstawowa,"DW740 38, Bielicha 26-601",DW740,38,26-601,Bielicha,483778025,,3.8,51.4137,21.0928,school
Korepetycje Matematyka Radom,"Zygmunta Wilczyńskiego 49, Radom 26-600",Zygmunta Wilczyńskiego,49,26-600,Radom,793993375,,5,51.3595,21.1512,school
Liceum Ogólnokształcące - Perspektywa,"Czarnoleska 10, Czarnoleska 26-600",Czarnoleska,10,26-600,Czarnoleska,793050821,,0,51.3714,21.131,school
Publiczna Szkoła Podstawowa nr 17. Filia,"Świętojańska 5, Radom 26-616",Świętojańska,5,26-616,Radom,483322548,,0,51.3716,21.1278,school
Przedszkole Publiczne nr 23,"Świętojańska 5, Radom 26-616",Świętojańska,5,26-616,Radom,483321260,,4.2,51.3717,21.1281,school
AS Radomiak Radom,"Juliusza Słowackiego 243, Radom 26-604",Juliusza Słowackiego,243,26-604,Radom,,,4.3,51.3722,21.1916,school
Szkoła Podstawowa nr 19 Publiczna,"Energetyków 10, Radom 26-613",Energetyków,10,26-613,Radom,483606766,,2.2,51.4391,21.1889,school
Publiczna Szkoła Podstawowa nr 17,"Czarnoleska 10, Radom 26-600",Czarnoleska,10,26-600,Radom,483312413,,3.4,51.3713,21.1309,school
Tu Wszystko Gra,"Juliusza Słowackiego 253, Radom 26-604",Juliusza Słowackiego,253,26-604,Radom,604439120,,5,51.3729,21.1915,school
Publiczna Szkoła Podstawowa im. Kornela Makuszyńskiego w Natolinie,"Natolin 59, Radom 26-613",Natolin,59,26-613,Radom,483848484,,3.6,51.4053,21.2176,school
Szkoła Podstawowa nr 18 Publiczna,"Ofiar Firleja 14, Radom 26-600",Ofiar Firleja,14,26-600,Radom,483451310,,3.8,51.444,21.1487,school
UKS Młodzik 18 Radom,"Ofiar Firleja 14, Radom 26-617",Ofiar Firleja,14,26-617,Radom,500235655,,4.1,51.444,21.1488,school
Zespół Szkolno - Przedszkolny Nr 1,"Ofiar Firleja 14, Radom 26-617",Ofiar Firleja,14,26-617,Radom,,,5,51.444,21.1489,school
Przedszkole Publiczne Nr 22,"Ofiar Firleja 16, Radom 26-600",Ofiar Firleja,16,26-600,Radom,,,0,51.4445,21.1494,school
Przedszkole nr 5 Publiczne im. T. Kościuszki,"Czarnoleska 15, Radom 26-600",Czarnoleska,15,26-600,Radom,483322707,,4.2,51.373,21.13,school
KRAINA PRZYGÓD,"Wierzbicka 99C, Radom 26-600",Wierzbicka,99C,26-600,Radom,691801802,,4.9,51.3747,21.1277,school
Szkoła Podstawowa nr 20 Publiczna im. Obrońców Pokoju,"Malenicka 29, Radom 26-604",Malenicka,29,26-604,Radom,483650803,,3.8,51.3772,21.1888,school
"Przedszkole i Żłobek ""Kajtuś""","Zofii Nałkowskiej 4, Radom 26-600",Zofii Nałkowskiej,4,26-600,Radom,694214250,,4.3,51.3741,21.1857,school
Publiczna Szkoła Podstawowa Nr 14 Integracyjna im. Jana Pawła II w Radomiu,"Wierzbicka 81/83, Radom 26-612",Wierzbicka,81/83,26-612,Radom,483632215,,4.1,51.3777,21.1287,school
Okko. Ośrodek Kształcenia Kadr Oświaty,"Pośrednia 4, Radom 26-616",Pośrednia,4,26-616,Radom,483318512,,5,51.3862,21.1093,school
Nauka Śpiewu i Gry Na Gitarze - mgr. Oskar Mikołajczak,"Skaryszewska 41A, Radom 26-604",Skaryszewska,41A,26-604,Radom,781282078,,5,51.3805,21.191,school
SKILLS FACTORY,"Idalińska 52C, Radom 26-604",Idalińska,52C,26-604,Radom,722039721,,5,51.3732,21.1745,school
BLISKO x WIOSKI | BLISKO Dziecięca Baza | przedszkole,"Marii Fołtyn 2, Radom 26-600",Marii Fołtyn,2,26-600,Radom,662589776,,4.4,51.4191,21.2054,school
ZACZAROWANA KRAINA,"Marii Fołtyn 2, Radom 26-600",Marii Fołtyn,2,26-600,Radom,881203223,,3.7,51.4191,21.2054,school
Radomski Klub Tenisowy Return,"Bulwarowa 19, Radom 26-600",Bulwarowa,19,26-600,Radom,691801722,,5,51.3907,21.1115,school
MatematiX Anna Wójcicka korepetycje,"Malenicka 10, Radom 26-604",Malenicka,10,26-604,Radom,,,5,51.3778,21.1863,school
Niepubliczna Szkoła Muzyczna I Stopnia,"Wierzbicka 55, Radom 26-612",Wierzbicka,55,26-612,Radom,603912116,,4.2,51.3811,21.1298,school
Publiczna Szkoła Podstawowa nr 17 im. Przyjaciół Dzieci w Radomiu,"Bolesława Limanowskiego 134, Radom 26-600",Bolesława Limanowskiego,134,26-600,Radom,483608701,,0,51.3838,21.1212,school
SMUF Shop - Hulajnogi wyczynowe,"Biała 135, Radom 26-604",Biała,135,26-604,Radom,792856700,,5,51.3776,21.1783,school
Zespół Szkół Centrum Kształcenia Rolniczego im. Władysława Stanisława Reymonta,"Uniwersytecka 6, Radom 26-600",Uniwersytecka,6,26-600,Radom,483310901,,3.6,51.4113,21.1121,school
Przedszkole Niepubliczne Słoneczko II,"Jerzego Radomskiego 8, Radom 26-600",Jerzego Radomskiego,8,26-600,Radom,483699227,,4.2,51.3778,21.1714,school
Publiczna Szkoła Podstawowa nr 4,"Wyścigowa 49, Radom 26-600",Wyścigowa,49,26-600,Radom,483653429,,3.2,51.3757,21.1731,school
Dwujęzyczna Szkoła Podstawowa nr 1 w Radomiu,"Jerzego Radomskiego 10, Radom 26-600",Jerzego Radomskiego,10,26-600,Radom,691499050,,4.7,51.3771,21.171,school
Publiczne Przedszkole Nr 7 w Radomiu,"DK7 , Radom 26-600",DK7,,26-600,Radom,483847399,,5,51.3972,21.2026,school
Przedszkole nr 10 oddział w szkole," , Radom 26-604",,,26-604,Radom,,,0,51.3782,21.1647,school
XII Liceum Ogólnokształcące w Radomiu,"Osiedlowa 36, Radom 26-600",Osiedlowa,36,26-600,Radom,483665805,,3.6,51.3783,21.1648,school
Zespół Szkół Spożywczych i Hotelarskich,"Św. Brata Alberta 1, Radom 26-600",Św. Brata Alberta,1,26-600,Radom,483662996,,2.9,51.3752,21.159,school
Publiczna Szkoła Podstawowa nr 12 w Zespole Szkół nr 1,"Św. Brata Alberta 1, Radom 26-611",Św. Brata Alberta,1,26-611,Radom,483605160,,4,51.3755,21.1584,school
Puchatek Przedszkole Niepubliczne,"Świętokrzyska 32, Radom 26-606",Świętokrzyska,32,26-606,Radom,483848839,,4.8,51.3762,21.1521,school
Przedszkole Niepubliczne Kolorowe Pudełko Radom,"Marii Fołtyn 6e, Radom 26-615",Marii Fołtyn,6e,26-615,Radom,723773833,,4.3,51.4212,21.1989,school
Publiczna Szkoła Podstawowa nr 23 im. Stefana Żeromskiego,"Gajowa 60, Radom 26-606",Gajowa,60,26-606,Radom,483665288,,4.4,51.3761,21.1473,school
BarMania Mateusz Środa,"Gajowa 43 m. 78, Radom 26-600",Gajowa,43 m. 78,26-600,Radom,661765301,,4.9,51.3768,21.1475,school
Publiczna szkoła Podstawowa nr 15,"Kielecka 45328, Radom 26-610",Kielecka,2/6,26-610,Radom,,,2.6,51.4068,21.1214,school
Niepubliczna szkoła podstawowa SONUS w Radomiu,"Tartaczna 16/18, Radom 26-612",Tartaczna,16/18,26-612,Radom,786112116,,5,51.3857,21.1349,school
Edupoczekalnia,"Grabowa 15, Radom 26-616",Grabowa,15,26-616,Radom,,,0,51.3869,21.1272,school
Przedszkole Planeta-Odkrywców,"Kielecka 15A, Radom 26-600",Kielecka,15A,26-600,Radom,517713241,,2.5,51.4045,21.1202,school
Niepubliczne Przedszkole Rudy Kocurek,"ul. Nowofolwarczna 16A, Radom 26-600",ul. Nowofolwarczna,16A,26-600,Radom,600599801,,0,51.4153,21.1204,school
Niepubliczne Przedszkole Językowe Kids College Agnieszka Kucharczyk,"Królowej Jadwigi 21, Radom 26-600",Królowej Jadwigi,21,26-600,Radom,888999990,,4,51.4301,21.1536,school
Przedszkole nr 13 Publiczne,"Garbarska 59/67, Radom 26-610",Garbarska,59/67,26-610,Radom,483699387,,4.2,51.4,21.1221,school
Pomnik Zamordowanych Podczas Okupacji Niemieckiej,"DW740 , Radom 26-610",DW740,,26-610,Radom,,,5,51.4071,21.1224,school
Zespół Szkół Specjalnych i Placówek Oświatowych,"Lipska 2, Radom 26-606",Lipska,2,26-606,Radom,483664131,,3.5,51.376,21.1561,school
Publiczna Szkoła Podstawowa nr 16 przy Zespole Szkół nr 2,"Lipska 2, Radom 26-606",Lipska,2,26-606,Radom,483664131,,0,51.3759,21.1563,school
Bajka. Niepubliczne przedszkole. Rywacka L.,"Podmiejska 50, Radom 26-600",Podmiejska,50,26-600,Radom,605955430,,4.6,51.3888,21.1839,school
CENTRUM EDUKACJI KERIM,"Południowa 39, Radom 26-600",Południowa,39,26-600,Radom,486850929,,0,51.3791,21.1514,school
Publiczna Szkoła Podstawowa Nr 22 Z Oddziałami Integracyjnymi Im. Mikołaja Reja W Radomiu,"Krucza 45332, Radom 26-600",Krucza,2/10,26-600,Radom,483310357,,4,51.4026,21.1231,school
Publiczna Szkoła Podstawowa Nr 2 im. Hansa Christiana Andersena w Radomiu,"Batalionów Chłopskich 16, Radom 26-612",Batalionów Chłopskich,16,26-612,Radom,483311653,,2.3,51.3898,21.1219,school
Start. Radomskie Stowarzyszenie Sportu i Rehabilitacji Osób Niepełnosprawnych,"Maratońska 1, Radom 26-612",Maratońska,1,26-612,Radom,483316876,,0,51.3901,21.1278,school
KERIM OCHRONA,"Dzielna 11, Radom 26-600",Dzielna,11,26-600,Radom,483668189,,4.2,51.3872,21.1822,school
Aura Natura,"Akacjowa 7, Radom 26-604",Akacjowa,7,26-604,Radom,503141444,,5,51.3851,21.1827,school
Przedszkole nr 10 Publiczne,"Osiedlowa 26, Radom 26-611",Osiedlowa,26,26-611,Radom,483664453,,4.7,51.3798,21.1644,school
Po Pierwsze Rodzina. Stowarzyszenie,"Królowej Jadwigi 12, Radom 26-617",Królowej Jadwigi,12,26-617,Radom,483450733,,4.5,51.4296,21.1617,school
Niepubliczne Przedszkole i Żłobek Słoneczna Kraina,"Księdza Ignacego Skorupki 1, Radom 26-600",Księdza Ignacego Skorupki,1,26-600,Radom,518261271,,4.2,51.4129,21.1852,school
TEB Edukacja,"Juliusza Słowackiego 84, Radom 26-600",Juliusza Słowackiego,84,26-600,Radom,486700550,,4.1,51.3897,21.1716,school
Ustronie. Klub Osiedlowy,"Sandomierska 14, Radom 26-611",Sandomierska,14,26-611,Radom,483857415,,4.2,51.3816,21.1563,school
Przedszkole Samorządowe,"Kościelna 7, Sadki 89-110",Kościelna,7,89-110,Sadki,523850788,,0,51.3884,21.1779,school
Plac manewrowy viper,"Orzechowa 2, Radom 26-606",Orzechowa,2,26-606,Radom,,,0,51.3817,21.1508,school
2plus2 Szkoła Matematyki,"Jurija Gagarina 2, Radom 26-600",Jurija Gagarina,2,26-600,Radom,,,0,51.3854,21.1582,school
OŚRODEK REHABILITACYJNO EDUKACYJNO WYCHOWAWCZY PSONI Radom,"Grenadierów 18, Radom 26-611",Grenadierów,18,26-611,Radom,483662611,,0,51.3842,21.1532,school
Przedszkole Publiczne nr 16 w Radomiu,"Grenadierów 3, Radom 26-611",Grenadierów,3,26-611,Radom,483316810,,4.9,51.3861,21.1508,school
Nasza Szkoła. Niepubliczna szkoła podstawowa z oddziałami przedszkolnymi,"Królowej Jadwigi 12, Radom 26-617",Królowej Jadwigi,12,26-617,Radom,483450733,,2.3,51.4296,21.1617,school
Mały Książę Niepubliczne Przedszkole Językowe w Radomiu,"Hutnicza 8, Radom 26-600",Hutnicza,8,26-600,Radom,790702701,,4.2,51.3923,21.136,school
Publiczna Szkoła Podstawowa nr. 30 im. Królowej Jadwigi,"Piastowska 17, Radom 26-617",Piastowska,17,26-617,Radom,483331657,,2.7,51.4319,21.158,school
Radomska Szkoła Wyższa,"ul 1905 Roku 26/28, Radom 26-610",ul 1905 Roku,26/28,26-610,Radom,483836605,,4.7,51.3911,21.1408,school
Hala Aga Sport,"1905 Roku 21, Radom 26-612",1905 Roku,21,26-612,Radom,483628299,,3.9,51.3896,21.1398,school
Football-kids,"1905 Roku 21, Radom 26-612",1905 Roku,21,26-612,Radom,606951777,,0,51.3905,21.1398,school
Szkoła Podstawowa nr 31 Publiczna,"Biała 6, Radom 26-604",Biała,6,26-604,Radom,483652814,,4,51.3867,21.166,school
Niepubliczna Placówka Kształcenia Ustawicznego Oddziału Okręgowego Stowarzyszenia Księgowych,"Wiktora Cymerysa-Kwiatkowskiego 70, Radom 26-600",Wiktora Cymerysa-Kwiatkowskiego,70,26-600,Radom,483858515,,0,51.3867,21.1637,school
Publiczna Szkoła Podstawowa nr 11 w Radomiu,"Jurija Gagarina 19, Radom 26-600",Jurija Gagarina,19,26-600,Radom,483668183,,4.2,51.3848,21.1541,school
Gąska Balbinka,"Rapackiego 17, Radom 26-605",Rapackiego,17,26-605,Radom,483669922,,3.8,51.4213,21.1729,school
Publiczna Szkoła Podstawowa nr 6 z Oddziałami Integracyjnymi im. Orła Białego,"Rapackiego 24, Radom 26-605",Rapackiego,24,26-605,Radom,483894910,,2.4,51.4203,21.1743,school
Liceum Ogólnokształcące Społeczne nr I,"Sandomierska 20, Radom 26-611",Sandomierska,20,26-611,Radom,483661949,,4.1,51.3828,21.1548,school
Żłobek,"Michałowska 7, Radom 26-605",Michałowska,7,26-605,Radom,511131455,,5,51.4189,21.1741,school
Przedszkole nr 24 Publiczne,"Powstańców Śląskich 9, Radom 26-609",Powstańców Śląskich,9,26-609,Radom,483447162,,4.4,51.4131,21.1818,school
Magic Garden Niepubliczne Przedszkole Językowe,"Tytoniowa 2/6a, Radom 26-600",Tytoniowa,2/6a,26-600,Radom,793698746,,5,51.3957,21.135,school
Przedszkole Niepubliczne Krasnal,"Bolesława Limanowskiego 31, Radom 26-600",Bolesława Limanowskiego,31,26-600,Radom,600394419,,5,51.3956,21.1351,school
Żłobek KRASNAL,"Bolesława Limanowskiego 31, Radom 26-600",Bolesława Limanowskiego,31,26-600,Radom,483631818,,3.8,51.3956,21.1349,school
Niepubliczne Przedszkole Integracyjne EKO LUDKI,"Puławska 23B, Radom 26-600",Puławska,23B,26-600,Radom,734087584,,4.5,51.3955,21.1776,school
Zespół Szkół Plastycznych im. Józefa Brandta,"Aleja Józefa Grzecznarowskiego 13, Radom 26-600",Aleja Józefa Grzecznarowskiego,13,26-600,Radom,483402838,,2.5,51.3884,21.1545,school
Zespół Szkół Zawodowych im. mjr. H. Dobrzańskiego Hubala,"Aleja Józefa Grzecznarowskiego 2, Radom 26-610",Aleja Józefa Grzecznarowskiego,2,26-610,Radom,483635700,,3.9,51.3882,21.153,school
Społeczne Ognisko Muzyczne Gołębiów Radom,"Tadeusza Kotarbińskiego 2, Radom 26-600",Tadeusza Kotarbińskiego,2,26-600,Radom,784402675,,0,51.4113,21.179,school
Szkoła Podstawowa nr 29 Publiczna,"Ceglana 14, Radom 26-601",Ceglana,14,26-601,Radom,483699398,,2.5,51.4101,21.1322,school
Edulandia - zajęcia z matematyki dla dzieci i młodzieży,"Polna 46/48, Radom 26-600",Polna,46/48,26-600,Radom,783888660,,5,51.4091,21.1336,school
Przedszkole Publiczne nr 8 im. Króla Maciusia I,"Królowej Jadwigi 17, Radom 26-617",Królowej Jadwigi,17,26-617,Radom,483459838,,5,51.4288,21.1575,school
Szkoła Wspinania GOup,"Wesoła 53A, Radom 26-604",Wesoła,53A,26-604,Radom,601324080,,0,51.3909,21.1791,school
Przedszkole nr 9 Publiczne,"Kalińska 4, Radom 26-604",Kalińska,4,26-604,Radom,483652591,,5,51.3904,21.1768,school
Publiczna Szkoła Podstawowa nr 24,"Powstańców Śląskich 4, Radom 26-615",Powstańców Śląskich,4,26-615,Radom,483441227,,2.3,51.4142,21.1831,school
Publiczna Szkoła Podstawowa nr 3 im. Jana Długosza,"Jana III Sobieskiego 15, Radom 26-617",Jana III Sobieskiego,15,26-617,Radom,483451388,,2.9,51.4281,21.1576,school
Przedszkole nr 8 Publiczne,"Jana III Sobieskiego 12, Radom 26-617",Jana III Sobieskiego,12,26-617,Radom,483459838,,4,51.4283,21.1573,school
Specjalny Ośrodek Szkolno Wychowawczy dla Dzieci Niewidomych i Słabo Widzących,"Andrzeja Struga 86, Radom 26-610",Andrzeja Struga,86,26-610,Radom,483847924,,4.8,51.4097,21.18,school
Zespół Szkół Elektronicznych im. Bohaterów Westerplatte,"Sadkowska 19, Radom 26-600",Sadkowska,19,26-600,Radom,483448116,,3.9,51.4075,21.1815,school
"Centrum Terapii ""Rozproszone Zmysły""","Chmielna 2B, Radom 26-600",Chmielna,2B,26-600,Radom,600599801,,3.9,51.4047,21.1308,school
"Terapeutyczny Punkt Przedszkolny ""Kocurek""","Chmielna 2B, Radom 26-600",Chmielna,2B,26-600,Radom,600599801,,0,51.4047,21.1308,school
Publiczna Szkoła Podstawowa nr 27 im. Szarych Szeregów w Radomiu,"Sadkowska 16, Radom 26-600",Sadkowska,16,26-600,Radom,483448931,,3.7,51.4066,21.1807,school
Profesja. Ośrodek Kształcenia Zawodowego,"Biznesowa 7, Radom 26-612",Biznesowa,7,26-612,Radom,483601356,,4.1,51.3907,21.1477,school
Przedszkole Niepubliczne Czas Dziecka,"Ignacego Paderewskiego 10, Radom 26-600",Ignacego Paderewskiego,10,26-600,Radom,732313976,,4.8,51.4165,21.1751,school
Publiczne Przedszkole nr 6,"Rapackiego 4, Radom 26-605",Rapackiego,4,26-605,Radom,483308802,,2.3,51.4216,21.1649,school
Publiczne Przedszkole nr 6,"Ignacego Paderewskiego 36, Radom 26-600",Ignacego Paderewskiego,36,26-600,Radom,483308802,,3.7,51.4207,21.1651,school
PLATYNA gym & bowling - klub fitness,"Biznesowa 8, Radom 26-600",Biznesowa,8,26-600,Radom,533390398,,4.6,51.3887,21.1477,school
zabytkowe zabudowania,"Generała Leopolda Okulickiego 49, Radom 26-601",Generała Leopolda Okulickiego,49,26-601,Radom,,,0,51.4053,21.1308,school
IV Liceum Ogólnokształcące im. Dra Tytusa Chałubińskiego,"Mariacka 25, Radom 26-600",Mariacka,25,26-600,Radom,483627485,,3.5,51.3962,21.1424,school
"Zespół Szkolno - Przedszkolny nr 4, Publiczna Szkoła Podstawowa nr 32 i Przedszkole Publiczne nr 26","Prospera Jarzyńskiego 3, Radom 26-606",Prospera Jarzyńskiego,3,26-606,Radom,483400201,,3.4,51.3948,21.1427,school
Przedszkole Niepubliczne prowadzone przez Zgromadzenie Córek Maryi Niepokalanej,"Staromiejska 9, Radom 26-610",Staromiejska,9,26-610,Radom,483621722,,5,51.4018,21.1378,school
Przedszkole Radom Niepubliczne Piotrówkowe Skarby,"Piotrówka 9, Radom 26-600",Piotrówka,9,26-600,Radom,609266600,,5,51.3986,21.1356,school
Przedszkole Publiczne nr 12,"Stanisława Wernera 34, Radom 26-610",Stanisława Wernera,34,26-610,Radom,483699466,,3.5,51.411,21.1367,school
Liceum Handlowe Towarzystwa Wiedzy Powszechnej,"Stanisława Wernera 22, Radom 26-610",Stanisława Wernera,22,26-610,Radom,483308345,,0,51.4105,21.138,school
Zespół Szkól Ekonomicznych w Radomiu,"Stanisława Wernera 22, Radom 26-610",Stanisława Wernera,22,26-610,Radom,483699324,,2.4,51.4104,21.1375,school
Szkoły 72 Pułku Piechoty w Radomiu ZDZ,"Saska 45388, Radom 26-600",Saska,4/6,26-600,Radom,483310523,,4.1,51.4068,21.1378,school
Niepubliczne Przedszkole NIEZAPOMINAJKA Radom.,"Staroopatowska 6/B, Radom 26-600",Staroopatowska,6/B,26-600,Radom,483778009,,3.7,51.3897,21.1591,school
Kształcenie ustawiczne - Radom,"Graniczna 24, Radom 26-600",Graniczna,24,26-600,Radom,483656292,,0,51.3914,21.1637,school
Medyczna Szkoła Policealna w CKZiU w Radomiu,"Kazimierza Pułaskiego 9, Radom 26-600",Kazimierza Pułaskiego,9,26-600,Radom,483621331,,5,51.425,21.1583,school
Szkoła Przysposabiająca do Pracy,"Aleja Józefa Grzecznarowskiego 15, Radom 26-610",Aleja Józefa Grzecznarowskiego,15,26-610,Radom,483636793,,5,51.3879,21.1556,school
Specjalny Ośrodek Szkolno - Wychowawczy im. J. Korczaka,"Aleja Józefa Grzecznarowskiego 15, Radom 26-600",Aleja Józefa Grzecznarowskiego,15,26-600,Radom,483636793,,4.7,51.3879,21.1555,school
Internat Specjalnego Ośrodka Szkolno - Wychowawczego im. J. Korczaka,"Kolejowa 22, Radom 26-610",Kolejowa,22,26-610,Radom,483846472,,3.8,51.389,21.1568,school
"Niepubliczne Przedszkole ""Wróbelek""","Ignacego Paderewskiego 19, Radom 26-605",Ignacego Paderewskiego,19,26-605,Radom,602308689,,5,51.4181,21.164,school
Uniwersytet Technologiczno-Humanistyczny im. Kazimierza Pułaskiego w Radomiu,"Kazimierza Pułaskiego 9, Radom 26-605",Kazimierza Pułaskiego,9,26-605,Radom,,,0,51.4251,21.1583,school
"Terapeutyczna Szkoła Podstawowa ""Mój Świat""","Puławska 14/18, Radom 26-604",Puławska,14/18,26-604,Radom,781303643,,5,51.3957,21.1749,school
"Niepubliczne Przedszkole Terapeutyczne ""Mój świat""","Puławska 14/18, Radom 26-600",Puławska,14/18,26-600,Radom,797350177,,4.6,51.3957,21.1749,school
PSP 28,"Jaracza 8, Radom 26-610",Jaracza,8,26-610,Radom,483404610,,3.8,51.3949,21.1529,school
Przedszkole nr 11 Publiczne,"Tadeusza Kościuszki 10, Radom 26-610",Tadeusza Kościuszki,10,26-610,Radom,483630484,,4.6,51.3953,21.151,school
Szkoła Podstawowa Publiczna Specjalna,"Aleja Józefa Grzecznarowskiego 15, Radom 26-610",Aleja Józefa Grzecznarowskiego,15,26-610,Radom,483602471,,0,51.3879,21.1555,school
Sportowe Misie,"Wernera 29/31, Radom 26-601",Wernera,29/31,26-601,Radom,793803961,,0,51.4094,21.1389,school
OSK-AR Ośrodek Szkolenia Kierowców AR,"Warszawska 17/21, Radom 26-605",Warszawska,17/21,26-605,Radom,483641714,,0,51.4171,21.1529,school
Przedszkole Karuzela II,"Szarych Szeregów 26, Radom 26-610",Szarych Szeregów,26,26-610,Radom,538220005,,5,51.4139,21.1478,school
Przedszkole nr 1 Publiczne,"Pułkownika Jana Zientarskiego 3, Radom 26-615",Pułkownika Jana Zientarskiego,3,26-615,Radom,483641451,,4.8,51.413,21.1787,school
Przedszkole nr 3 Publiczne,"Olsztyńska 12, Radom 26-610",Olsztyńska,12,26-610,Radom,483449784,,3.8,51.4061,21.1755,school
Centrum Kształcenia Zawodowego i Ustawicznego nr 2 w Radomiu,"Tadeusza Kościuszki 7, Radom 26-610",Tadeusza Kościuszki,7,26-610,Radom,483626253,,3.9,51.3954,21.1502,school
Szkoła Żak,"Romualda Traugutta 17A, Radom 26-600",Romualda Traugutta,17A,26-600,Radom,483601462,,4.5,51.3949,21.1545,school
MSCDN,"Tadeusza Kościuszki 5A, Radom 26-610",Tadeusza Kościuszki,5A,26-610,Radom,483621579,,4,51.395,21.1489,school
Przedszkole,"Tytusa Chałubińskiego 22, Radom 26-610",Tytusa Chałubińskiego,22,26-610,Radom,,,0,51.3954,21.1475,school
Feniks - Liceum mundurowe w Radomiu,"Tadeusza Kościuszki 7, Radom 26-600",Tadeusza Kościuszki,7,26-600,Radom,519437538,,3,51.3961,21.1502,school
I Liceum Mundurowe CN-B,"Tadeusza Kościuszki 7, Radom 26-610",Tadeusza Kościuszki,7,26-610,Radom,,,0,51.3965,21.15,school
SMS RADOM Społeczne Liceum Mistrzostwa Sportowego w Radomiu,"Tadeusza Kościuszki 7, Radom 26-600",Tadeusza Kościuszki,7,26-600,Radom,,,0,51.3959,21.1504,school
Cku Szkoły Dla Dorosłych,"Tadeusza Kościuszki 7, Radom 26-600",Tadeusza Kościuszki,7,26-600,Radom,,,0,51.3958,21.1505,school
Zespół Szkół Budowlanych im. Kazimierza Wielkiego,"Tadeusza Kościuszki 7, Radom 26-610",Tadeusza Kościuszki,7,26-610,Radom,483621832,,3.9,51.3964,21.1506,school
Szkoła Mistrzostwa Sportowego,"Bolesława Limanowskiego 26/30, Radom 26-600",Bolesława Limanowskiego,26/30,26-600,Radom,,,5,51.3988,21.1396,school
Szkoła Podstawowa nr 33,"Oskara Kolberga 5, Radom 26-610",Oskara Kolberga,5,26-610,Radom,483637362,,2.3,51.401,21.1719,school
X Liceum Ogólnokształcące im. Stanisława Konarskiego,"Dionizego Czachowskiego 1, Radom 26-610",Dionizego Czachowskiego,1,26-610,Radom,483631788,,4.3,51.3948,21.1631,school
Kształcenie ustawiczne - Radom,"Władysława Beliny-Prażmowskiego 37, Radom 26-600",Władysława Beliny-Prażmowskiego,37,26-600,Radom,483631128,,0,51.3949,21.1631,school
Profesja,"Władysława Beliny-Prażmowskiego 13, Radom 26-610",Władysława Beliny-Prażmowskiego,13,26-610,Radom,483633501,,0,51.3928,21.1565,school
Kongregacja Oratorium św. Filipa Neri,"Grzybowska 22, Radom 26-610",Grzybowska,22,26-610,Radom,483405828,,4.8,51.4049,21.1736,school
Katolickie Liceum Ogólnokształcące im. św. Filipa Neri,"Grzybowska 22, Radom 26-600",Grzybowska,22,26-600,Radom,483639596,,3.6,51.4049,21.1731,school
Zespół Szkół Rzemieślniczych im. Fabiana Stankowskiego,"Bolesława Limanowskiego 26/30, Radom 26-610",Bolesława Limanowskiego,26/30,26-610,Radom,,,5,51.3999,21.1393,school
CKD Edukacja,"Bolesława Limanowskiego 26/30, Radom 26-600",Bolesława Limanowskiego,26/30,26-600,Radom,600409950,,4,51.3999,21.1393,school
Szkoła Pamięci i Szybkiego Czytania,"Romualda Traugutta 61, Radom 26-600",Romualda Traugutta,61,26-600,Radom,603118702,,0,51.4004,21.1485,school
Palarnia na garażach,"Romualda Traugutta 52A, Radom 26-610",Romualda Traugutta,52A,26-610,Radom,,,4.2,51.3997,21.1501,school
III Liceum Ogólnokształcące im. płk. Dionizego Czachowskiego w Radomiu,"Romualda Traugutta 44, Radom 26-610",Romualda Traugutta,44,26-610,Radom,483623664,,4.1,51.3984,21.1509,school
Niepubliczne Naukowe Przedszkole Integracyjne Mini College w Radomiu,"Wolność 10B, Radom 26-610",Wolność,10B,26-610,Radom,790780374,,5,51.4058,21.1458,school
Diecezjalne Studium Organistowskie Diecezji Radomskiej,"Bolesława Prusa 6, Radom 26-600",Bolesława Prusa,6,26-600,Radom,483656228,,0,51.396,21.1561,school
Nauka Gry Na Gitarze,"Kardynała Stefana Wyszyńskiego 16, Radom 26-610",Kardynała Stefana Wyszyńskiego,16,26-610,Radom,505403607,,0,51.3965,21.1583,school
Akademickie Liceum Ogólnokształcące,"Kardynała Stefana Wyszyńskiego 6, Radom 26-600",Kardynała Stefana Wyszyńskiego,6,26-600,Radom,,,5,51.3955,21.1579,school
FENIX EXPERT Mariusz Kułakowski,"Ludwika Waryńskiego , Radom 26-610",Ludwika Waryńskiego,,26-610,Radom,502723502,,5,51.3951,21.1574,school
Publiczna Szkoła Podstawowa Nr 13 z Oddziałami Integracyjnymi im. Ks. Józefa Poniatowskiego w Radomiu,"Henryka Sienkiewicza 30, Radom 26-600",Henryka Sienkiewicza,30,26-600,Radom,483621313,,2.9,51.3966,21.1593,school
COSINUS Radom - Licea i Szkoły Policealne dla dorosłych,"Stanisława Moniuszki 3/5/A, Radom 26-600",Stanisława Moniuszki,3/5/A,26-600,Radom,483632430,,4.4,51.3971,21.1534,school
Szkoła Dwujęzyczna im. Marii Montessori,"Romualda Traugutta 34, Radom 26-600",Romualda Traugutta,34,26-600,Radom,,,4,51.3968,21.1532,school
Szkoła Podstawowa Partner International Primary School,"Romualda Traugutta 34, Radom 26-600",Romualda Traugutta,34,26-600,Radom,483635095,,0,51.3968,21.1532,school
Liceum Profilowane nr I,"Gabriela Narutowicza 12, Radom 97-500",Gabriela Narutowicza,12,97-500,Radom,446832673,,0,51.3971,21.1513,school
Ogólnokształcące Liceum Językowe Z Oddziałami Dwujęzycznymi Im. Unii Europejskiej,"Henryka Sienkiewicza 8, Radom 26-600",Henryka Sienkiewicza,8,26-600,Radom,,,0,51.3979,21.1543,school
Szkoła Muzyczna Radomska Szkoła Rocka,"Henryka Sienkiewicza 8, Radom 26-610",Henryka Sienkiewicza,8,26-610,Radom,796818188,,4.8,51.3979,21.1543,school
Niepubliczna Placówka Kształcenia Ustawicznego Pracowni Zamówień Publicznych,"Henryka Sienkiewicza 10, Radom 26-610",Henryka Sienkiewicza,10,26-610,Radom,483621648,,0,51.3979,21.1547,school
Niepubliczna Szkoła Podstawowa im. Juliusza Słowackiego,"Warszawska 3, Radom 26-600",Warszawska,3,26-600,Radom,483641991,,4.2,51.4131,21.1536,school
Przedszkole Publiczne nr 2 w Radomiu,"Generała Jakuba Jasińskiego 4, Radom 26-609",Generała Jakuba Jasińskiego,4,26-609,Radom,483606380,,3.6,51.4107,21.1632,school
Sami dla Siebie,"Warszawska 3, Radom 26-600",Warszawska,3,26-600,Radom,483641991,,0,51.4131,21.1536,school
BEST COMPLEX,"Stefana Żeromskiego 94, Radom 26-600",Stefana Żeromskiego,94,26-600,Radom,600677657,,0,51.3996,21.1667,school
Школа 2 Корпус,"25 czerwca 23, Radom 26-604",25 czerwca,23,26-604,Radom,,,0,51.396,21.1602,school
Publiczna Szkoła Podstawowa im. Jana Pawła II w Kuczkach Kolonii,"Stanisława Wernera 5 lok. 3, Radom 26-600",Stanisława Wernera,5 lok. 3,26-600,Radom,483202079,,0,51.4062,21.149,school
Szkoła Podstawowa," , Radom 26-610",,,26-610,Radom,627846117,,0,51.4053,21.1488,school
Niepubliczne Przedszkole Słoneczna Kraina,"Sportowa 21, Radom 26-600",Sportowa,21,26-600,Radom,518461636,,1,51.4105,21.1685,school
XI Liceum Ogólnokształcące z Oddziałami Integracyjnymi im. Stanisława Staszica w Radomiu,"11 listopada 27, Radom 26-600",11 listopada,27,26-600,Radom,483640854,,2.1,51.4151,21.1578,school
Edukacja s.c. Niepubliczny Ośrodek Kształcenia Ustawicznego,"Stefana Żeromskiego 75, Radom 26-610",Stefana Żeromskiego,75,26-610,Radom,483815131,,0,51.3999,21.1635,school
Akademia Twórczego Rozwoju Bystrzak Radom/Bystrzak Matematyka,"Stanisława Wernera 45425, Radom 26-200",Stanisława Wernera,5/13,26-200,Radom,788404788,,0,51.4062,21.149,school
Publiczna Szkoła Podstawowa nr 7,"Aleksandra Tybla 45484, Radom 26-610",Aleksandra Tybla,7/11,26-610,Radom,483633714,,3.3,51.4047,21.1469,school
Przedszkole Karuzela I,"Bolesława Chrobrego 30F, Radom 26-605",Bolesława Chrobrego,30F,26-605,Radom,538220004,,5,51.4119,21.1605,school
Publiczna Szkoła Podstawowa nr 5,"Generała Józefa Sowińskiego 1, Radom 26-609",Generała Józefa Sowińskiego,1,26-609,Radom,483644644,,3,51.4129,21.1621,school
Niepubliczny Żłobek Słoneczna Kraina,"Sportowa 5/U31, Radom 26-615",Sportowa,5/U31,26-615,Radom,739047559,,5,51.4085,21.1674,school
Fabryka Języka,"25 czerwca 45, Radom 26-600",25 czerwca,45,26-600,Radom,606108446,,0,51.3996,21.162,school
Edukacja 2001. Ośrodek Doradztwa i Doskonalenia Zawodowego,"Stefana Żeromskiego 65, Radom 26-610",Stefana Żeromskiego,65,26-610,Radom,483070950,,5,51.4005,21.1609,school
Niepubliczne Przedszkole Słoneczna Kraina,"Młynarska 13, Radom 26-610",Młynarska,13,26-610,Radom,518261271,,5,51.4014,21.1653,school
I Liceum Ogólnokształcące im. Mikołaja Kopernika,"Stefana Żeromskiego 10, Radom 26-600",Stefana Żeromskiego,10,26-600,Radom,483627655,,3.7,51.4015,21.1483,school
Prim. Górka P.,"25 czerwca 65, Radom 26-610",25 czerwca,65,26-610,Radom,486796081,,0,51.4034,21.1641,school
Szkoła Podstawowa nr 2 im. Sebastiana Alvareza (Sentino) Pałuckiego,"Piłsudskiego 22, Radom 97-500",Piłsudskiego,22,97-500,Radom,,,2.4,51.4027,21.1471,school
Bricks 4 Kidz Radom,"Stefana Żeromskiego 15/3, Radom 26-600",Stefana Żeromskiego,15/3,26-600,Radom,507890015,,5,51.4019,21.1494,school
Specjalny Ośrodek Szkolno - Wychowawczy dla Dzieci Niesłyszących,"Stanisława Wernera 6, Radom 26-610",Stanisława Wernera,6,26-610,Radom,483625634,,4.4,51.4079,21.1492,school
Zasadnicza Szkoła Odzieżowa,"Jana i Jędrzeja Śniadeckich 5, Radom 26-610",Jana i Jędrzeja Śniadeckich,5,26-610,Radom,483698066,,5,51.4107,21.151,school
"Zespół Szkół Skórzano-Odzieżowych, Stylizacji i Usług w Radomiu","Jana i Jędrzeja Śniadeckich 5, Radom 26-600",Jana i Jędrzeja Śniadeckich,5,26-600,Radom,483640252,,3.4,51.4107,21.151,school
Przedszkole Niepubliczne Czas Dziecka 2 Leśniczówka,"Młynarska 10, Radom 26-610",Młynarska,10,26-610,Radom,571271955,,5,51.4018,21.1662,school
Liceum Ogólnokształcące Uzupełniające Zaoczne dla Dorosłych,"Jana i Jędrzeja Śniadeckich 5, Radom 26-610",Jana i Jędrzeja Śniadeckich,5,26-610,Radom,483629757,,0,51.4107,21.151,school
Liceum Profilowane,"Jana i Jędrzeja Śniadeckich 5, Radom 26-610",Jana i Jędrzeja Śniadeckich,5,26-610,Radom,483640252,,0,51.4107,21.151,school
ZKiW w Rozłazinie im. Bohaterów Stutthofu," , Rozłazino 84-218",,,84-218,Rozłazino,586789914,,5,51.4021,21.152,school
POP GYM Body & Mind Club,"Witolda 7, Radom 26-600",Witolda,7,26-600,Radom,483778878,,4.6,51.4029,21.1518,school
Centrum Edukacji. Zaoczne Szkoły Licealne i Policealne dla Dorosłych,"Ulica Jana Kilińskiego 15/17, Radom 26-610",Ulica Jana Kilińskiego,15/17,26-610,Radom,483629757,,0,51.4025,21.1539,school
Publiczna Szkoła Podstawowa nr 34,"Miła 18, Radom 26-600",Miła,18,26-600,Radom,483669503,,3.1,51.4087,21.1615,school
Bursa szkolna,"Jana i Jędrzeja Śniadeckich 5, Radom 26-610",Jana i Jędrzeja Śniadeckich,5,26-610,Radom,483641164,,2.8,51.4107,21.151,school
Centrum Nauczania Matematyki MathRiders Radom Korepetycje z matematyki Radom,"Miła 17, Radom 26-600",Miła,17,26-600,Radom,517390606,,5,51.4076,21.1587,school
Mini Karuzela. Punkt Przedszkolny,"gen. Emila Fieldorfa , Radom 26-600",gen. Emila Fieldorfa,,26-600,Radom,510832823,,0,51.4034,21.1555,school
VI Liceum Ogólnokształcące z Oddziałami Dwujęzycznymi im. Jana Kochanowskiego,"Ulica Jana Kilińskiego 25, Radom 26-639",Ulica Jana Kilińskiego,25,26-639,Radom,483632396,,3.9,51.4022,21.156,school
Zespół Szkół Ogólnokształcących nr 6 im. J. Kochanowskiego,"Ulica Jana Kilińskiego 25, Radom 26-610",Ulica Jana Kilińskiego,25,26-610,Radom,483622052,,5,51.4023,21.1559,school
Publiczne Przedszkole nr 4 im. J. Tuwima,"Ulica Jana Kilińskiego 23, Radom 26-610",Ulica Jana Kilińskiego,23,26-610,Radom,483623948,,4.9,51.4027,21.1553,school
Edusfera Radom,"Stanisława Moniuszki 26, Radom 26-600",Stanisława Moniuszki,26,26-600,Radom,601897575,,4.5,51.4008,21.1556,school
Towarzystwo Wiedzy Powszechnej Oddział Regionalny w Radomiu,"Partyzantów 45419, Radom 26-600",Partyzantów,5/7,26-600,Radom,483622628,,4.5,51.4042,21.1616,school
Edus,"Zegara Słonecznego 6, Radom 26-600",Zegara Słonecznego,6,26-600,Radom,533777654,,5,51.4084,21.1558,school
Przedszkole nr 15 Publiczne,"Janusza Kusocińskiego 10, Radom 26-610",Janusza Kusocińskiego,10,26-610,Radom,483641691,,4.1,51.4101,21.157,school
Liceum Ogólnokształcące dla Dorosłych Towarzystwa Wiedzy Powszechnej,"Partyzantów 45419, Radom 26-610",Partyzantów,5/7,26-610,Radom,483600298,,0,51.4042,21.1616,school
II Liceum Ogólnokształcące im. Marii Konopnickiej,"Janusza Kusocińskiego 8, Radom 26-600",Janusza Kusocińskiego,8,26-600,Radom,483641180,,3.3,51.4098,21.1566,school
Rektorat,"Jacka Malczewskiego 27, Radom 26-610",Jacka Malczewskiego,27,26-610,Radom,,,3.7,51.4075,21.1509,school
XIII Liceum Ogólnokształcące z Oddziałami Dwujęzycznymi im. Polskich Noblistów w Radomiu,"25 czerwca 79, Radom 26-610",25 czerwca,79,26-610,Radom,483631895,,3.9,51.405,21.1637,school
VII Liceum Ogólnokształcące im. Krzysztofa Kamila Baczyńskiego,"Warszawska 12, Radom 26-600",Warszawska,12,26-600,Radom,483441060,,3.2,51.4131,21.1557,school
Szkoły 72 Pułku Piechoty w Radomiu ZDZ,"Saska 45388, Radom 26-600",Saska,4/6,26-600,Radom,483310523,,4.1,51.4068,21.1378,secondary_school
Liceum Ogólnokształcące - Perspektywa,"Czarnoleska 10, Czarnoleska 26-600",Czarnoleska,10,26-600,Czarnoleska,793050821,,0,51.3714,21.131,secondary_school
IV Liceum Ogólnokształcące im. Dra Tytusa Chałubińskiego,"Mariacka 25, Radom 26-600",Mariacka,25,26-600,Radom,483627485,,3.5,51.3962,21.1424,secondary_school
Szkoła Mistrzostwa Sportowego,"Bolesława Limanowskiego 26/30, Radom 26-600",Bolesława Limanowskiego,26/30,26-600,Radom,,,5,51.3988,21.1396,secondary_school
Szkoła Żak,"Romualda Traugutta 17A, Radom 26-600",Romualda Traugutta,17A,26-600,Radom,483601462,,4.5,51.3949,21.1545,secondary_school
X Liceum Ogólnokształcące im. Stanisława Konarskiego,"Dionizego Czachowskiego 1, Radom 26-610",Dionizego Czachowskiego,1,26-610,Radom,483631788,,4.3,51.3948,21.1631,secondary_school
Profesja,"Władysława Beliny-Prażmowskiego 13, Radom 26-610",Władysława Beliny-Prażmowskiego,13,26-610,Radom,483633501,,0,51.3928,21.1565,secondary_school
Katolickie Liceum Ogólnokształcące im. św. Filipa Neri,"Grzybowska 22, Radom 26-600",Grzybowska,22,26-600,Radom,483639596,,3.6,51.4049,21.1731,secondary_school
III Liceum Ogólnokształcące im. płk. Dionizego Czachowskiego w Radomiu,"Romualda Traugutta 44, Radom 26-610",Romualda Traugutta,44,26-610,Radom,483623664,,4.1,51.3984,21.1509,secondary_school
COSINUS Radom - Licea i Szkoły Policealne dla dorosłych,"Stanisława Moniuszki 3/5/A, Radom 26-600",Stanisława Moniuszki,3/5/A,26-600,Radom,483632430,,4.4,51.3971,21.1534,secondary_school
Liceum Profilowane nr I,"Gabriela Narutowicza 12, Radom 97-500",Gabriela Narutowicza,12,97-500,Radom,446832673,,0,51.3971,21.1513,secondary_school
Liceum Ogólnokształcące Uzupełniające Zaoczne dla Dorosłych,"Jana i Jędrzeja Śniadeckich 5, Radom 26-610",Jana i Jędrzeja Śniadeckich,5,26-610,Radom,483629757,,0,51.4107,21.151,secondary_school
XI Liceum Ogólnokształcące z Oddziałami Integracyjnymi im. Stanisława Staszica w Radomiu,"11 listopada 27, Radom 26-600",11 listopada,27,26-600,Radom,483640854,,2.1,51.4151,21.1578,secondary_school
Liceum Profilowane,"Jana i Jędrzeja Śniadeckich 5, Radom 26-610",Jana i Jędrzeja Śniadeckich,5,26-610,Radom,483640252,,0,51.4107,21.151,secondary_school
I Liceum Ogólnokształcące im. Mikołaja Kopernika,"Stefana Żeromskiego 10, Radom 26-600",Stefana Żeromskiego,10,26-600,Radom,483627655,,3.7,51.4015,21.1483,secondary_school
II Liceum Ogólnokształcące im. Marii Konopnickiej,"Janusza Kusocińskiego 8, Radom 26-600",Janusza Kusocińskiego,8,26-600,Radom,483641180,,3.3,51.4098,21.1566,secondary_school
XIII Liceum Ogólnokształcące z Oddziałami Dwujęzycznymi im. Polskich Noblistów w Radomiu,"25 czerwca 79, Radom 26-610",25 czerwca,79,26-610,Radom,483631895,,3.9,51.405,21.1637,secondary_school
VI Liceum Ogólnokształcące z Oddziałami Dwujęzycznymi im. Jana Kochanowskiego,"Ulica Jana Kilińskiego 25, Radom 26-639",Ulica Jana Kilińskiego,25,26-639,Radom,483632396,,3.9,51.4022,21.156,secondary_school
VII Liceum Ogólnokształcące im. Krzysztofa Kamila Baczyńskiego,"Warszawska 12, Radom 26-600",Warszawska,12,26-600,Radom,483441060,,3.2,51.4131,21.1557,secondary_school